[
    {
        "name": "田園バレー交流施設",
        "address": "長久手市前熊下田１３４",
        "latitude": "35.185375",
        "longitude": "137.061267",
        "m_sum": "6",
        "w_sum": "5",
        "uni_sum": "0",
        "multi_toilet": "1",
        "wheelchair": "TRUE",
        "babies": "FALSE",
        "ostomate": "FALSE"
    },
    {
        "name": "立石池",
        "address": "長久手市岩作北山",
        "latitude": "35.189711",
        "longitude": "137.043273",
        "m_sum": "3",
        "w_sum": "2",
        "uni_sum": "0",
        "multi_toilet": "1",
        "wheelchair": "TRUE",
        "babies": "FALSE",
        "ostomate": "FALSE"
    },
    {
        "name": "自然環境・生態系保全施設",
        "address": "長久手市岩作大根",
        "latitude": "35.180438",
        "longitude": "137.061961",
        "m_sum": "1",
        "w_sum": "1",
        "uni_sum": "0",
        "multi_toilet": "1",
        "wheelchair": "TRUE",
        "babies": "FALSE",
        "ostomate": "FALSE"
    },
    {
        "name": "後山公園",
        "address": "長久手市桜作５０１",
        "latitude": "35.178887",
        "longitude": "137.032978",
        "m_sum": "1",
        "w_sum": "0",
        "uni_sum": "2",
        "multi_toilet": "0",
        "wheelchair": "FALSE",
        "babies": "FALSE",
        "ostomate": "FALSE"
    },
    {
        "name": "血の池公園",
        "address": "長久手市城屋敷４１０",
        "latitude": "35.174821",
        "longitude": "137.044038",
        "m_sum": "3",
        "w_sum": "2",
        "uni_sum": "0",
        "multi_toilet": "1",
        "wheelchair": "TRUE",
        "babies": "TRUE",
        "ostomate": "FALSE"
    },
    {
        "name": "原邸公園",
        "address": "長久手市原邸１０１",
        "latitude": "35.185622",
        "longitude": "137.033813",
        "m_sum": "2",
        "w_sum": "0",
        "uni_sum": "1",
        "multi_toilet": "0",
        "wheelchair": "FALSE",
        "babies": "FALSE",
        "ostomate": "FALSE"
    },
    {
        "name": "桧ケ根公園",
        "address": "長久手市坊の後１１３",
        "latitude": "35.180029",
        "longitude": "137.039735",
        "m_sum": "3",
        "w_sum": "2",
        "uni_sum": "0",
        "multi_toilet": "0",
        "wheelchair": "FALSE",
        "babies": "FALSE",
        "ostomate": "FALSE"
    },
    {
        "name": "長湫南部公園",
        "address": "長久手市根嶽１１０２",
        "latitude": "35.164769",
        "longitude": "137.026437",
        "m_sum": "3",
        "w_sum": "2",
        "uni_sum": "0",
        "multi_toilet": "1",
        "wheelchair": "TRUE",
        "babies": "TRUE",
        "ostomate": "FALSE"
    },
    {
        "name": "大平公園",
        "address": "長久手市平池６０１",
        "latitude": "35.183744",
        "longitude": "137.02862",
        "m_sum": "2",
        "w_sum": "0",
        "uni_sum": "1",
        "multi_toilet": "0",
        "wheelchair": "FALSE",
        "babies": "FALSE",
        "ostomate": "FALSE"
    },
    {
        "name": "仲作田公園",
        "address": "長久手市作田一丁目１９０１",
        "latitude": "35.17657",
        "longitude": "137.02647",
        "m_sum": "1",
        "w_sum": "0",
        "uni_sum": "2",
        "multi_toilet": "0",
        "wheelchair": "FALSE",
        "babies": "FALSE",
        "ostomate": "FALSE"
    },
    {
        "name": "猪洞公園",
        "address": "長久手市熊田９０１",
        "latitude": "35.174062",
        "longitude": "137.024837",
        "m_sum": "1",
        "w_sum": "0",
        "uni_sum": "2",
        "multi_toilet": "0",
        "wheelchair": "FALSE",
        "babies": "FALSE",
        "ostomate": "FALSE"
    },
    {
        "name": "喜婦嶽公園",
        "address": "長久手市喜婦嶽１６０１",
        "latitude": "35.170491",
        "longitude": "137.041277",
        "m_sum": "1",
        "w_sum": "0",
        "uni_sum": "1",
        "multi_toilet": "0",
        "wheelchair": "FALSE",
        "babies": "FALSE",
        "ostomate": "FALSE"
    },
    {
        "name": "山越公園",
        "address": "長久手市砂子４０１",
        "latitude": "35.167541",
        "longitude": "137.045779",
        "m_sum": "1",
        "w_sum": "0",
        "uni_sum": "1",
        "multi_toilet": "0",
        "wheelchair": "FALSE",
        "babies": "FALSE",
        "ostomate": "FALSE"
    },
    {
        "name": "戸田谷公園",
        "address": "長久手市戸田谷７０１",
        "latitude": "35.173054",
        "longitude": "137.03753",
        "m_sum": "1",
        "w_sum": "0",
        "uni_sum": "1",
        "multi_toilet": "0",
        "wheelchair": "FALSE",
        "babies": "FALSE",
        "ostomate": "FALSE"
    },
    {
        "name": "長配公園",
        "address": "長久手市長配二丁目１８０１",
        "latitude": "35.163606",
        "longitude": "137.040591",
        "m_sum": "1",
        "w_sum": "0",
        "uni_sum": "1",
        "multi_toilet": "0",
        "wheelchair": "FALSE",
        "babies": "FALSE",
        "ostomate": "FALSE"
    },
    {
        "name": "中川原公園",
        "address": "長久手市上川原１１－１",
        "latitude": "35.188822",
        "longitude": "137.028097",
        "m_sum": "1",
        "w_sum": "0",
        "uni_sum": "1",
        "multi_toilet": "0",
        "wheelchair": "FALSE",
        "babies": "FALSE",
        "ostomate": "FALSE"
    },
    {
        "name": "上川原公園",
        "address": "長久手市段の上５０１",
        "latitude": "35.186208",
        "longitude": "137.03105",
        "m_sum": "1",
        "w_sum": "0",
        "uni_sum": "1",
        "multi_toilet": "0",
        "wheelchair": "FALSE",
        "babies": "FALSE",
        "ostomate": "FALSE"
    },
    {
        "name": "草掛公園",
        "address": "長久手市東原７０、７１",
        "latitude": "35.189572",
        "longitude": "137.036699",
        "m_sum": "0",
        "w_sum": "0",
        "uni_sum": "0",
        "multi_toilet": "1",
        "wheelchair": "TRUE",
        "babies": "TRUE",
        "ostomate": "FALSE"
    },
    {
        "name": "西洞公園",
        "address": "長久手市久保山２２０１",
        "latitude": "35.174087",
        "longitude": "137.03455",
        "m_sum": "1",
        "w_sum": "0",
        "uni_sum": "1",
        "multi_toilet": "0",
        "wheelchair": "FALSE",
        "babies": "FALSE",
        "ostomate": "FALSE"
    },
    {
        "name": "蟹原公園",
        "address": "長久手市蟹原５０１",
        "latitude": "35.166844",
        "longitude": "137.034081",
        "m_sum": "1",
        "w_sum": "0",
        "uni_sum": "1",
        "multi_toilet": "0",
        "wheelchair": "FALSE",
        "babies": "FALSE",
        "ostomate": "FALSE"
    },
    {
        "name": "段ノ上公園",
        "address": "長久手市段の上１２０５",
        "latitude": "35.186208",
        "longitude": "137.03105",
        "m_sum": "1",
        "w_sum": "0",
        "uni_sum": "1",
        "multi_toilet": "0",
        "wheelchair": "FALSE",
        "babies": "FALSE",
        "ostomate": "FALSE"
    },
    {
        "name": "鴨田公園",
        "address": "長久手市鴨田１００３",
        "latitude": "35.182453",
        "longitude": "137.034166",
        "m_sum": "0",
        "w_sum": "0",
        "uni_sum": "1",
        "multi_toilet": "0",
        "wheelchair": "FALSE",
        "babies": "FALSE",
        "ostomate": "FALSE"
    },
    {
        "name": "坊ノ後公園",
        "address": "長久手市坊の後９１３",
        "latitude": "35.17931695",
        "longitude": "137.0403275",
        "m_sum": "1",
        "w_sum": "0",
        "uni_sum": "1",
        "multi_toilet": "0",
        "wheelchair": "FALSE",
        "babies": "FALSE",
        "ostomate": "FALSE"
    },
    {
        "name": "先達公園",
        "address": "長久手市先達２０９",
        "latitude": "35.178246",
        "longitude": "137.047068",
        "m_sum": "1",
        "w_sum": "0",
        "uni_sum": "1",
        "multi_toilet": "0",
        "wheelchair": "FALSE",
        "babies": "FALSE",
        "ostomate": "FALSE"
    },
    {
        "name": "仏ケ根公園",
        "address": "長久手市仏が根６０１",
        "latitude": "35.175171",
        "longitude": "137.047732",
        "m_sum": "1",
        "w_sum": "0",
        "uni_sum": "1",
        "multi_toilet": "0",
        "wheelchair": "FALSE",
        "babies": "FALSE",
        "ostomate": "FALSE"
    },
    {
        "name": "東浦公園",
        "address": "長久手市東浦８０１",
        "latitude": "35.176812",
        "longitude": "137.044299",
        "m_sum": "0",
        "w_sum": "0",
        "uni_sum": "1",
        "multi_toilet": "0",
        "wheelchair": "FALSE",
        "babies": "FALSE",
        "ostomate": "FALSE"
    },
    {
        "name": "前熊公園",
        "address": "長久手市前熊前山１０５",
        "latitude": "35.179027",
        "longitude": "137.06601",
        "m_sum": "1",
        "w_sum": "0",
        "uni_sum": "1",
        "multi_toilet": "0",
        "wheelchair": "FALSE",
        "babies": "FALSE",
        "ostomate": "FALSE"
    },
    {
        "name": "中根公園",
        "address": "長久手市岩作中根１２１",
        "latitude": "35.174813",
        "longitude": "137.063419",
        "m_sum": "1",
        "w_sum": "0",
        "uni_sum": "1",
        "multi_toilet": "0",
        "wheelchair": "FALSE",
        "babies": "FALSE",
        "ostomate": "FALSE"
    },
    {
        "name": "丸根公園",
        "address": "長久手市丸根１３３－１、２",
        "latitude": "35.175257",
        "longitude": "137.052442",
        "m_sum": "1",
        "w_sum": "0",
        "uni_sum": "1",
        "multi_toilet": "0",
        "wheelchair": "FALSE",
        "babies": "FALSE",
        "ostomate": "FALSE"
    },
    {
        "name": "三ケ峯公園",
        "address": "長久手市岩作三ヶ峯２－１６６",
        "latitude": "35.166429",
        "longitude": "137.084323",
        "m_sum": "1",
        "w_sum": "0",
        "uni_sum": "1",
        "multi_toilet": "0",
        "wheelchair": "FALSE",
        "babies": "FALSE",
        "ostomate": "FALSE"
    },
    {
        "name": "三ケ峯第２公園",
        "address": "長久手市岩作三ヶ峯１９－１",
        "latitude": "35.165584",
        "longitude": "137.081323",
        "m_sum": "1",
        "w_sum": "0",
        "uni_sum": "0",
        "multi_toilet": "1",
        "wheelchair": "TRUE",
        "babies": "TRUE",
        "ostomate": "FALSE"
    },
    {
        "name": "市が洞一丁目公園",
        "address": "長久手市市が洞一丁目１２０１",
        "latitude": "35.164614",
        "longitude": "137.029157",
        "m_sum": "1",
        "w_sum": "0",
        "uni_sum": "0",
        "multi_toilet": "1",
        "wheelchair": "TRUE",
        "babies": "TRUE",
        "ostomate": "FALSE"
    },
    {
        "name": "片平一丁目公園",
        "address": "長久手市片平一丁目",
        "latitude": "35.161206",
        "longitude": "137.035698",
        "m_sum": "1",
        "w_sum": "0",
        "uni_sum": "0",
        "multi_toilet": "1",
        "wheelchair": "TRUE",
        "babies": "TRUE",
        "ostomate": "FALSE"
    },
    {
        "name": "市が洞三丁目公園",
        "address": "長久手市丁子田２－２",
        "latitude": "35.158095",
        "longitude": "137.027635",
        "m_sum": "1",
        "w_sum": "0",
        "uni_sum": "0",
        "multi_toilet": "1",
        "wheelchair": "TRUE",
        "babies": "TRUE",
        "ostomate": "FALSE"
    },
    {
        "name": "西原山公園",
        "address": "長久手市西原山１－８、９、１６－５、１５、２４－４、５",
        "latitude": "35.18968",
        "longitude": "137.024872",
        "m_sum": "1",
        "w_sum": "0",
        "uni_sum": "0",
        "multi_toilet": "1",
        "wheelchair": "TRUE",
        "babies": "TRUE",
        "ostomate": "FALSE"
    },
    {
        "name": "片平二丁目公園",
        "address": "長久手市片平二丁目１２０５",
        "latitude": "35.159578",
        "longitude": "137.034403",
        "m_sum": "1",
        "w_sum": "0",
        "uni_sum": "0",
        "multi_toilet": "1",
        "wheelchair": "TRUE",
        "babies": "TRUE",
        "ostomate": "FALSE"
    },
    {
        "name": "大久手公園",
        "address": "長久手市大久手",
        "latitude": "35.175524",
        "longitude": "137.050287",
        "m_sum": "1",
        "w_sum": "0",
        "uni_sum": "0",
        "multi_toilet": "1",
        "wheelchair": "TRUE",
        "babies": "TRUE",
        "ostomate": "FALSE"
    },
    {
        "name": "横道公園",
        "address": "長久手市横道",
        "latitude": "35.171224",
        "longitude": "137.050451",
        "m_sum": "1",
        "w_sum": "0",
        "uni_sum": "0",
        "multi_toilet": "1",
        "wheelchair": "TRUE",
        "babies": "TRUE",
        "ostomate": "FALSE"
    },
    {
        "name": "深田公園",
        "address": "愛知県長久手市深田",
        "latitude": "35.17308992",
        "longitude": "137.0547421",
        "m_sum": "1",
        "w_sum": "0",
        "uni_sum": "0",
        "multi_toilet": "1",
        "wheelchair": "TRUE",
        "babies": "TRUE",
        "ostomate": "FALSE"
    },
    {
        "name": "下山公園",
        "address": "愛知県長久手市下山",
        "latitude": "35.18802701",
        "longitude": "137.0220044",
        "m_sum": "1",
        "w_sum": "0",
        "uni_sum": "0",
        "multi_toilet": "1",
        "wheelchair": "TRUE",
        "babies": "TRUE",
        "ostomate": "FALSE"
    },
    {
        "name": "一ノ井１号公園",
        "address": "愛知県長久手市前熊一ノ井",
        "latitude": "35.16975838",
        "longitude": "137.0783214",
        "m_sum": "3",
        "w_sum": "0",
        "uni_sum": "0",
        "multi_toilet": "1",
        "wheelchair": "TRUE",
        "babies": "TRUE",
        "ostomate": "FALSE"
    },
    {
        "name": "一ノ井２号公園",
        "address": "愛知県長久手市前熊一ノ井",
        "latitude": "35.16848011",
        "longitude": "137.0752422",
        "m_sum": "3",
        "w_sum": "0",
        "uni_sum": "0",
        "multi_toilet": "1",
        "wheelchair": "TRUE",
        "babies": "TRUE",
        "ostomate": "FALSE"
    },
    {
        "name": "せせらぎの径",
        "address": "愛知県長久手市氏神前.城屋敷.西浦",
        "latitude": "35.17551786",
        "longitude": "137.0403344",
        "m_sum": "1",
        "w_sum": "0",
        "uni_sum": "2",
        "multi_toilet": "0",
        "wheelchair": "FALSE",
        "babies": "FALSE",
        "ostomate": "FALSE"
    },
    {
        "name": "公園西駅２号公園",
        "address": "愛知県長久手市石場",
        "latitude": "35.17199368",
        "longitude": "137.0816701",
        "m_sum": "1",
        "w_sum": "0",
        "uni_sum": "0",
        "multi_toilet": "1",
        "wheelchair": "TRUE",
        "babies": "FALSE",
        "ostomate": "FALSE"
    },
    {
        "name": "寺山児童遊園",
        "address": "長久手市岩作字寺山８２",
        "latitude": "35.193936",
        "longitude": "137.049253",
        "m_sum": "2",
        "w_sum": "0",
        "uni_sum": "1",
        "multi_toilet": "0",
        "wheelchair": "FALSE",
        "babies": "FALSE",
        "ostomate": "FALSE"
    },
    {
        "name": "立花児童遊園",
        "address": "長久手市岩作字白針２４、２５",
        "latitude": "35.187128",
        "longitude": "137.047592",
        "m_sum": "2",
        "w_sum": "0",
        "uni_sum": "1",
        "multi_toilet": "0",
        "wheelchair": "FALSE",
        "babies": "FALSE",
        "ostomate": "FALSE"
    },
    {
        "name": "東島児童遊園",
        "address": "長久手市岩作字東島111-1、８７、８８",
        "latitude": "35.184126",
        "longitude": "137.048762",
        "m_sum": "2",
        "w_sum": "0",
        "uni_sum": "1",
        "multi_toilet": "0",
        "wheelchair": "FALSE",
        "babies": "FALSE",
        "ostomate": "FALSE"
    },
    {
        "name": "大草東児童遊園",
        "address": "長久手市熊張字杁之洞2335-3、2335-4",
        "latitude": "35.181841",
        "longitude": "137.077765",
        "m_sum": "1",
        "w_sum": "0",
        "uni_sum": "1",
        "multi_toilet": "0",
        "wheelchair": "FALSE",
        "babies": "FALSE",
        "ostomate": "FALSE"
    },
    {
        "name": "長久手市中央図書館",
        "address": "長久手市坊の後１１４番地",
        "latitude": "35.181256",
        "longitude": "137.038935",
        "m_sum": "13",
        "w_sum": "8",
        "uni_sum": "0",
        "multi_toilet": "1",
        "wheelchair": "TRUE",
        "babies": "TRUE",
        "ostomate": "FALSE"
    },
    {
        "name": "香流川砂防公園",
        "address": "長久手市岩作三ヶ峯地内",
        "latitude": "35.168581",
        "longitude": "137.084253",
        "m_sum": "3",
        "w_sum": "1",
        "uni_sum": "0",
        "multi_toilet": "0",
        "wheelchair": "FALSE",
        "babies": "FALSE",
        "ostomate": "FALSE"
    },
    {
        "name": "長久手市役所(本庁舎・北庁舎)",
        "address": "長久手市岩作城の内６０番地１",
        "latitude": "35.184144",
        "longitude": "137.048762",
        "m_sum": "36",
        "w_sum": "20",
        "uni_sum": "0",
        "multi_toilet": "1",
        "wheelchair": "TRUE",
        "babies": "FALSE",
        "ostomate": "FALSE"
    },
    {
        "name": "長久手市役所（西庁舎）",
        "address": "長久手市岩作城の内９９番地",
        "latitude": "35.184162",
        "longitude": "137.048001",
        "m_sum": "12",
        "w_sum": "6",
        "uni_sum": "0",
        "multi_toilet": "1",
        "wheelchair": "TRUE",
        "babies": "TRUE",
        "ostomate": "TRUE"
    },
    {
        "name": "長久手中央2号公園",
        "address": "長久手市勝入塚205",
        "latitude": "35.168771",
        "longitude": "137.051587",
        "m_sum": "3",
        "w_sum": "1",
        "uni_sum": "0",
        "multi_toilet": "1",
        "wheelchair": "TRUE",
        "babies": "TRUE",
        "ostomate": "FALSE"
    },
    {
        "name": "長久手市まちづくりセンター",
        "address": "長久手市武蔵塚101番地3",
        "latitude": "35.174179",
        "longitude": "137.045793",
        "m_sum": "8",
        "w_sum": "4",
        "uni_sum": "0",
        "multi_toilet": "1",
        "wheelchair": "TRUE",
        "babies": "FALSE",
        "ostomate": "FALSE"
    },
    {
        "name": "長久手交流プラザ",
        "address": "長久手市岩作東中1番地3",
        "latitude": "35.182534",
        "longitude": "137.049687",
        "m_sum": "6",
        "w_sum": "4",
        "uni_sum": "0",
        "multi_toilet": "1",
        "wheelchair": "TRUE",
        "babies": "FALSE",
        "ostomate": "FALSE"
    },
    {
        "name": "長久手市農村環境改善センター",
        "address": "長久手市前熊前山173番地",
        "latitude": "35.178882",
        "longitude": "137.066238",
        "m_sum": "6",
        "w_sum": "3",
        "uni_sum": "0",
        "multi_toilet": "0",
        "wheelchair": "FALSE",
        "babies": "FALSE",
        "ostomate": "FALSE"
    },
    {
        "name": "西小校区共生ステーション",
        "address": "長久手市五合池2209番地",
        "latitude": "35.181614",
        "longitude": "137.03007",
        "m_sum": "2",
        "w_sum": "2",
        "uni_sum": "0",
        "multi_toilet": "2",
        "wheelchair": "TRUE",
        "babies": "TRUE",
        "ostomate": "FALSE"
    },
    {
        "name": "市が洞小校区共生ステーション",
        "address": "長久手市卯塚一丁目101番地",
        "latitude": "35.167349",
        "longitude": "137.02719",
        "m_sum": "3",
        "w_sum": "2",
        "uni_sum": "0",
        "multi_toilet": "1",
        "wheelchair": "TRUE",
        "babies": "FALSE",
        "ostomate": "FALSE"
    },
    {
        "name": "長久手市卯塚墓園",
        "address": "長久手市卯塚二丁目３０３番地",
        "latitude": "35.16493",
        "longitude": "137.032584",
        "m_sum": "6",
        "w_sum": "3",
        "uni_sum": "0",
        "multi_toilet": "2",
        "wheelchair": "TRUE",
        "babies": "TRUE",
        "ostomate": "FALSE"
    },
    {
        "name": "長久手市清掃センター",
        "address": "長久手市岩作宮前９９番地",
        "latitude": "35.185103",
        "longitude": "137.049339",
        "m_sum": "2",
        "w_sum": "1",
        "uni_sum": "0",
        "multi_toilet": "1",
        "wheelchair": "TRUE",
        "babies": "FALSE",
        "ostomate": "FALSE"
    },
    {
        "name": "古戦場公園",
        "address": "長久手市武蔵塚２０４",
        "latitude": "35.173277",
        "longitude": "137.048493",
        "m_sum": "7",
        "w_sum": "4",
        "uni_sum": "0",
        "multi_toilet": "1",
        "wheelchair": "TRUE",
        "babies": "FALSE",
        "ostomate": "FALSE"
    },
    {
        "name": "色金山歴史公園",
        "address": "長久手市岩作色金３７－１",
        "latitude": "35.185783",
        "longitude": "137.055584",
        "m_sum": "6",
        "w_sum": "5",
        "uni_sum": "0",
        "multi_toilet": "1",
        "wheelchair": "TRUE",
        "babies": "FALSE",
        "ostomate": "FALSE"
    },
    {
        "name": "長久手市福祉の家",
        "address": "長久手市前熊下田171番地",
        "latitude": "35.184254",
        "longitude": "137.061361",
        "m_sum": "12",
        "w_sum": "9",
        "uni_sum": "0",
        "multi_toilet": "2",
        "wheelchair": "TRUE",
        "babies": "TRUE",
        "ostomate": "FALSE"
    },
    {
        "name": "高齢者生きがいセンター",
        "address": "長久手市岩作城の内98番地",
        "latitude": "35.184043",
        "longitude": "137.047596",
        "m_sum": "8",
        "w_sum": "5",
        "uni_sum": "0",
        "multi_toilet": "2",
        "wheelchair": "FALSE",
        "babies": "FALSE",
        "ostomate": "TRUE"
    },
    {
        "name": "長久手市文化の家",
        "address": "長久手市野田農201番地",
        "latitude": "35.183026",
        "longitude": "137.037853",
        "m_sum": "10",
        "w_sum": "8",
        "uni_sum": "0",
        "multi_toilet": "2",
        "wheelchair": "TRUE",
        "babies": "TRUE",
        "ostomate": "FALSE"
    },
    {
        "name": "杁ケ池体育館",
        "address": "長久手市杁ケ池１００１",
        "latitude": "35.167958",
        "longitude": "137.034647",
        "m_sum": "10",
        "w_sum": "5",
        "uni_sum": "0",
        "multi_toilet": "1",
        "wheelchair": "TRUE",
        "babies": "TRUE",
        "ostomate": "TRUE"
    },
    {
        "name": "杁ケ池公園",
        "address": "長久手市杁ケ池１００１",
        "latitude": "35.167958",
        "longitude": "137.034647",
        "m_sum": "4",
        "w_sum": "3",
        "uni_sum": "0",
        "multi_toilet": "1",
        "wheelchair": "TRUE",
        "babies": "FALSE",
        "ostomate": "FALSE"
    },
    {
        "name": "北小校区共生ステーション",
        "address": "長久手市段の上2901番地",
        "latitude": "35.18803",
        "longitude": "137.03364",
        "m_sum": "2",
        "w_sum": "2",
        "uni_sum": "0",
        "multi_toilet": "1",
        "wheelchair": "TRUE",
        "babies": "FALSE",
        "ostomate": "FALSE"
    },
    {
        "name": "南小校区共生ステーション",
        "address": "長久手市杁ヶ池1002番地",
        "latitude": "35.16919",
        "longitude": "137.0369",
        "m_sum": "3",
        "w_sum": "2",
        "uni_sum": "0",
        "multi_toilet": "1",
        "wheelchair": "TRUE",
        "babies": "TRUE",
        "ostomate": "TRUE"
    }
]